# data/fixtures/baresTemuco.yml
Local:
  local1:
    nombre_local: Denuncias por amenazas.
    descripcion_local: ¿Como enfrentamos las amenazas incluso de muerte?
    category_id:  1
    direccion: Alemania, 740, Temuco, Región de la Araucanía, Chile
    lat: -38.734276
    lng: -72.613024
      
  local2:
    nombre_local: Organización vecinal
    descripcion_local: ¿Como podemos estar informados y organizados entre vecinos?
    category_id:  2
    direccion: Manuel Bulnes, 846, Temuco, Región de la Araucanía, Chile
    lat: -38.7416616
    lng: -72.5897898
      
  local3:
    nombre_local:  Apoyo al necesitado
    descripcion_local: ¿Como reaccionamos al encontrarnos con una persona minusválida?
    category_id:  3
    direccion: Caupolicán, 215-245, Temuco, Región de la Araucanía, Chile
    lat: -38.73763636793623
    lng: -72.59737508709412
    
  local4:
    nombre_local:  Robo en casas vecinas
    descripcion_local: ¿Como nos preparamos y actuamos frente a posibles amenazas?
    category_id:  2
    direccion: Bernardo O`Higgins, 907, Temuco, Región de la Araucanía, Chile
    lat: -38.7437484
    lng: -72.5901913
    
  local5:
    nombre_local: Violencia intrafamiliar
    descripcion_local: ¿Estamos concientes de que debemos actuar si sabemos de alguna situación?
    category_id:  1
    direccion: Hochstetter, 435, Temuco, Región de la Araucanía, Chile
    lat: -38.7336886
    lng: -72.6133102   